{
  "country": "Switzerland",
  "iso": "CH",
  "source": "swissgolf.ch finder",
  "scraped_at": "2026-05-04T18:22:50.731Z",
  "total": 117,
  "categories": {
    "primary": 28,
    "driving-range": 6,
    "secondary": 72,
    "pitch-putt": 6,
    "indoor": 5
  },
  "real_courses": 100,
  "clubs": [
    {
      "swissgolf_id": 45,
      "name": "Aaretal",
      "logo": null,
      "lat": 46.8128909,
      "lon": 7.5782003,
      "category": "primary",
      "website": "https://www.golfaaretal.ch/",
      "holes": null,
      "postcode": null,
      "city": null
    },
    {
      "swissgolf_id": 171,
      "name": "Albis-Golf",
      "logo": "logo_albisgolf_blau.jpg",
      "lat": 47.334572469966744,
      "lon": 8.460045696579513,
      "category": "driving-range",
      "website": "https://albis-golf.ch",
      "holes": null,
      "postcode": "8907",
      "city": "Wettswil"
    },
    {
      "swissgolf_id": 46,
      "name": "Alvaneu Bad",
      "logo": null,
      "lat": 46.6693342,
      "lon": 9.6482908,
      "category": "secondary",
      "website": "https://golf-alvaneu.ch/",
      "holes": null,
      "postcode": null,
      "city": null
    },
    {
      "swissgolf_id": 162,
      "name": "Andermatt Realp: Anlage Andermatt",
      "logo": "logo_andermatt.jpg",
      "lat": 46.6321051,
      "lon": 8.5837545,
      "category": "secondary",
      "website": "https://www.andermatt-golf.ch",
      "holes": null,
      "postcode": null,
      "city": null
    },
    {
      "swissgolf_id": 4,
      "name": "Andermatt Realp: Anlage Realp",
      "logo": "logo_andermatt_realp.png",
      "lat": 46.5957464,
      "lon": 8.4986181,
      "category": "primary",
      "website": "https://www.golf-gotthard.ch/",
      "holes": 9,
      "postcode": "6491",
      "city": "Realp"
    },
    {
      "swissgolf_id": 16,
      "name": "Appenzell",
      "logo": null,
      "lat": 47.3300302,
      "lon": 9.3658015,
      "category": "secondary",
      "website": "https://www.golfplatz.ch/home.html",
      "holes": null,
      "postcode": null,
      "city": null
    },
    {
      "swissgolf_id": 47,
      "name": "Arosa",
      "logo": null,
      "lat": 46.7913523,
      "lon": 9.6802329,
      "category": "secondary",
      "website": "https://www.golfarosa.ch/",
      "holes": null,
      "postcode": null,
      "city": null
    },
    {
      "swissgolf_id": 6,
      "name": "Augwil",
      "logo": null,
      "lat": 47.4739256,
      "lon": 8.6022061,
      "category": "primary",
      "website": "https://www.golfaugwil.ch/",
      "holes": null,
      "postcode": null,
      "city": null
    },
    {
      "swissgolf_id": 48,
      "name": "Axenstein",
      "logo": "logo_axenstein.jpg",
      "lat": 46.9877814,
      "lon": 8.6192002,
      "category": "primary",
      "website": "http://www.golfclub-axenstein.ch/",
      "holes": null,
      "postcode": null,
      "city": null
    },
    {
      "swissgolf_id": 49,
      "name": "Bad Ragaz",
      "logo": "logo_bad_ragaz.jpg",
      "lat": 46.9991162,
      "lon": 9.5086001,
      "category": "secondary",
      "website": "https://www.golfclubragaz.ch/",
      "holes": null,
      "postcode": null,
      "city": null
    },
    {
      "swissgolf_id": 7,
      "name": "Basel",
      "logo": null,
      "lat": 47.5479543,
      "lon": 7.4598907,
      "category": "secondary",
      "website": "https://www.gccbasel.ch/",
      "holes": null,
      "postcode": null,
      "city": null
    },
    {
      "swissgolf_id": 8,
      "name": "Bern / Golfpark Moossee",
      "logo": "gcb.jpg",
      "lat": 47.027726,
      "lon": 7.4634955,
      "category": "secondary",
      "website": "https://www.golfclub-bern.ch/",
      "holes": null,
      "postcode": null,
      "city": null
    },
    {
      "swissgolf_id": 50,
      "name": "Blumisberg",
      "logo": "logo_blumisberg.jpg",
      "lat": 46.8724038,
      "lon": 7.2860204,
      "category": "secondary",
      "website": "https://www.blumisberg.ch",
      "holes": 18,
      "postcode": "3184",
      "city": "Wünnewil"
    },
    {
      "swissgolf_id": 51,
      "name": "Bodensee Weissensberg",
      "logo": "logo_bodensee_weissensberg.jpg",
      "lat": 47.5959036,
      "lon": 9.7232813,
      "category": "secondary",
      "website": "https://www.gcbw.de/",
      "holes": null,
      "postcode": null,
      "city": null
    },
    {
      "swissgolf_id": 52,
      "name": "Bonmont",
      "logo": "logo_bonmont.jpg",
      "lat": 46.4023981,
      "lon": 6.1471196,
      "category": "secondary",
      "website": "https://www.bonmont.com/",
      "holes": null,
      "postcode": null,
      "city": null
    },
    {
      "swissgolf_id": 53,
      "name": "Bossey",
      "logo": "logo_bossey.png",
      "lat": 46.1532592,
      "lon": 6.1652031,
      "category": "secondary",
      "website": "https://www.golfbossey.com/",
      "holes": 18,
      "postcode": null,
      "city": null
    },
    {
      "swissgolf_id": 54,
      "name": "Breitenloo",
      "logo": "logo_breitenloo.jpg",
      "lat": 47.4713196,
      "lon": 8.6281863,
      "category": "secondary",
      "website": "https://breitenloo.ch/",
      "holes": null,
      "postcode": null,
      "city": null
    },
    {
      "swissgolf_id": 55,
      "name": "Brigels",
      "logo": "logo_brigels.jpg",
      "lat": 46.7674302,
      "lon": 9.0691205,
      "category": "primary",
      "website": "http://www.golfidylle.ch/",
      "holes": null,
      "postcode": null,
      "city": null
    },
    {
      "swissgolf_id": 56,
      "name": "Bubikon",
      "logo": "logo_bubikon.jpg",
      "lat": 47.2615357,
      "lon": 8.8283182,
      "category": "primary",
      "website": "https://www.swissgolfbubikon.ch/",
      "holes": 9,
      "postcode": "8608",
      "city": "Bubikon"
    },
    {
      "swissgolf_id": 31,
      "name": "Buna Vista Sagogn",
      "logo": null,
      "lat": 46.7893797,
      "lon": 9.2466259,
      "category": "secondary",
      "website": "https://www.bunavistagolf.ch/",
      "holes": 18,
      "postcode": "7152",
      "city": "Sagogn"
    },
    {
      "swissgolf_id": 57,
      "name": "Bürgenstock",
      "logo": null,
      "lat": 46.9957402,
      "lon": 8.3927657,
      "category": "primary",
      "website": "https://www.golfclub-buergenstock.ch/",
      "holes": null,
      "postcode": null,
      "city": null
    },
    {
      "swissgolf_id": 190,
      "name": "City Golf",
      "logo": "logo_citygolf_pos.png",
      "lat": 47.5622250198509,
      "lon": 7.555549519034783,
      "category": "pitch-putt",
      "website": "https://citygolf.ch/",
      "holes": null,
      "postcode": null,
      "city": null
    },
    {
      "swissgolf_id": 172,
      "name": "Company Golf & Lodge",
      "logo": "logo_farbig_rgb_lodge.jpeg",
      "lat": 46.88732561797517,
      "lon": 8.617748725040713,
      "category": "pitch-putt",
      "website": "https://www.company-lodge.ch/golf/golfanlage/",
      "holes": null,
      "postcode": null,
      "city": null
    },
    {
      "swissgolf_id": 58,
      "name": "Crans-sur-Sierre",
      "logo": null,
      "lat": 46.3036774,
      "lon": 7.4658408,
      "category": "secondary",
      "website": "https://www.golfcrans.ch/fr/",
      "holes": null,
      "postcode": null,
      "city": null
    },
    {
      "swissgolf_id": 59,
      "name": "Davos",
      "logo": "logo_davos.jpg",
      "lat": 46.798687,
      "lon": 9.838368,
      "category": "secondary",
      "website": "https://www.golf-davos.ch/",
      "holes": null,
      "postcode": null,
      "city": null
    },
    {
      "swissgolf_id": 60,
      "name": "Dolder",
      "logo": null,
      "lat": 47.3723104,
      "lon": 8.5717668,
      "category": "primary",
      "website": "https://www.doldergolf.ch/",
      "holes": null,
      "postcode": null,
      "city": null
    },
    {
      "swissgolf_id": 11,
      "name": "Domaine du Brésil",
      "logo": null,
      "lat": 46.6739533,
      "lon": 6.5913924,
      "category": "primary",
      "website": "https://www.golfbresil.ch/",
      "holes": null,
      "postcode": null,
      "city": null
    },
    {
      "swissgolf_id": 61,
      "name": "Domaine Impérial",
      "logo": null,
      "lat": 46.3975497,
      "lon": 6.2791237,
      "category": "secondary",
      "website": "https://www.golfdomaineimperial.com/",
      "holes": null,
      "postcode": null,
      "city": null
    },
    {
      "swissgolf_id": 12,
      "name": "Domat Ems",
      "logo": null,
      "lat": 46.829379,
      "lon": 9.437535,
      "category": "secondary",
      "website": "https://www.golfdomatems.ch/home.html",
      "holes": null,
      "postcode": null,
      "city": null
    },
    {
      "swissgolf_id": 187,
      "name": "Earlybirdie - Aarau",
      "logo": "earlybirdiegreen_4_.png",
      "lat": 47.44137538192703,
      "lon": 8.07526619778528,
      "category": "indoor",
      "website": "https://www.earlybirdie-golf.ch/aarau",
      "holes": null,
      "postcode": null,
      "city": null
    },
    {
      "swissgolf_id": 188,
      "name": "Earlybirdie - Baden",
      "logo": "earlybirdiegreen_4_.png",
      "lat": 47.46390600401291,
      "lon": 8.30775626052986,
      "category": "indoor",
      "website": "https://www.earlybirdie-golf.ch/baden",
      "holes": null,
      "postcode": null,
      "city": null
    },
    {
      "swissgolf_id": 189,
      "name": "Earlybirdie - Chur",
      "logo": "earlybirdiegreen_4_.png",
      "lat": 46.8618691700495,
      "lon": 9.534832638403588,
      "category": "indoor",
      "website": "https://www.earlybirdie-golf.ch/chur",
      "holes": null,
      "postcode": null,
      "city": null
    },
    {
      "swissgolf_id": 10,
      "name": "Emmental",
      "logo": null,
      "lat": 47.028601,
      "lon": 7.633248,
      "category": "secondary",
      "website": "https://www.golfemmental.ch/",
      "holes": null,
      "postcode": null,
      "city": null
    },
    {
      "swissgolf_id": 44,
      "name": "Engadine: Anlage Samedan",
      "logo": "logo_golfclub-engadin.png",
      "lat": 46.5283365,
      "lon": 9.8573404,
      "category": "secondary",
      "website": "https://www.engadin-golf.ch/de",
      "holes": 18,
      "postcode": "7503",
      "city": "Samedan"
    },
    {
      "swissgolf_id": 43,
      "name": "Engadine: Anlage Zuoz-Madulain",
      "logo": "logo_golfclub-engadin.png",
      "lat": 46.5962705,
      "lon": 9.9636339,
      "category": "secondary",
      "website": "https://www.engadin-golf.ch/de",
      "holes": null,
      "postcode": null,
      "city": null
    },
    {
      "swissgolf_id": 13,
      "name": "Engelberg",
      "logo": null,
      "lat": 46.8069923,
      "lon": 8.4347341,
      "category": "secondary",
      "website": "https://golfclub-engelberg.ch/",
      "holes": null,
      "postcode": null,
      "city": null
    },
    {
      "swissgolf_id": 62,
      "name": "Ennetsee / Golfpark Holzhäusern",
      "logo": null,
      "lat": 47.1486738,
      "lon": 8.4406177,
      "category": "secondary",
      "website": "https://www.ennetsee-golf.ch/",
      "holes": null,
      "postcode": "6343",
      "city": "Rotkreuz"
    },
    {
      "swissgolf_id": 14,
      "name": "Entfelden",
      "logo": null,
      "lat": 47.3498606,
      "lon": 8.0485003,
      "category": "secondary",
      "website": "https://www.aarau-west.ch/golf/",
      "holes": null,
      "postcode": null,
      "city": null
    },
    {
      "swissgolf_id": 63,
      "name": "Erlen",
      "logo": "logo_erlen_1.jpg",
      "lat": 47.5449981,
      "lon": 9.2372949,
      "category": "secondary",
      "website": "https://erlengolf.ch/",
      "holes": null,
      "postcode": null,
      "city": null
    },
    {
      "swissgolf_id": 64,
      "name": "Esery",
      "logo": "logo_esery.jpg",
      "lat": 46.1425853,
      "lon": 6.2366595,
      "category": "secondary",
      "website": "https://www.golf-club-esery.com/",
      "holes": null,
      "postcode": null,
      "city": null
    },
    {
      "swissgolf_id": 65,
      "name": "Flühli-Sörenberg",
      "logo": "logo_flueehli-soerenberg.jpg",
      "lat": 46.864317,
      "lon": 8.0200215,
      "category": "primary",
      "website": "https://www.gcfs.ch/",
      "holes": null,
      "postcode": null,
      "city": null
    },
    {
      "swissgolf_id": 66,
      "name": "Fricktal",
      "logo": "logo_frick.png",
      "lat": 47.506948,
      "lon": 8.0389224,
      "category": "primary",
      "website": "https://www.golf-fricktal.ch",
      "holes": null,
      "postcode": null,
      "city": null
    },
    {
      "swissgolf_id": 15,
      "name": "Gams-Werdenberg",
      "logo": null,
      "lat": 47.207499,
      "lon": 9.478025,
      "category": "secondary",
      "website": "http://www.golfgams.ch/home.html",
      "holes": null,
      "postcode": null,
      "city": null
    },
    {
      "swissgolf_id": 67,
      "name": "Genève",
      "logo": null,
      "lat": 46.2238307,
      "lon": 6.1906823,
      "category": "secondary",
      "website": "http://www.golfgeneve.ch/",
      "holes": null,
      "postcode": null,
      "city": null
    },
    {
      "swissgolf_id": 80,
      "name": "Gerre Losone",
      "logo": "logo_losone.png",
      "lat": 46.1777429,
      "lon": 8.7477898,
      "category": "secondary",
      "website": "https://www.golflosone.ch/it/",
      "holes": null,
      "postcode": null,
      "city": null
    },
    {
      "swissgolf_id": 186,
      "name": "Golf de la Vieille-Bâtie",
      "logo": "logo2.jpg",
      "lat": 46.29011777379845,
      "lon": 6.119155386870525,
      "category": "pitch-putt",
      "website": "http://www.golf-vieille-batie.ch",
      "holes": null,
      "postcode": null,
      "city": null
    },
    {
      "swissgolf_id": 174,
      "name": "Golf de Pra Roman",
      "logo": "logo_pra_roman.jpg",
      "lat": 46.565372545621784,
      "lon": 6.701566953856366,
      "category": "driving-range",
      "website": "https://www.golfpraroman.ch",
      "holes": null,
      "postcode": null,
      "city": null
    },
    {
      "swissgolf_id": 175,
      "name": "Golf dei Castelli",
      "logo": "golf-dei-castelli-logo.jpg",
      "lat": 46.19940393502881,
      "lon": 9.015278208353493,
      "category": "pitch-putt",
      "website": "http://par54.ch",
      "holes": null,
      "postcode": null,
      "city": null
    },
    {
      "swissgolf_id": 176,
      "name": "Golf Glarnerland - Driving Range",
      "logo": "logo_gg.jpg",
      "lat": 46.986612,
      "lon": 9.060518,
      "category": "driving-range",
      "website": "https://golf-glarnerland.ch",
      "holes": null,
      "postcode": "8772",
      "city": "Nidfurn"
    },
    {
      "swissgolf_id": 184,
      "name": "Golf Glarnerland - Pitch&Putt",
      "logo": "logo_gg.jpg",
      "lat": 46.98645159809925,
      "lon": 9.141172862201342,
      "category": "pitch-putt",
      "website": "https://golf-glarnerland.ch",
      "holes": null,
      "postcode": null,
      "city": null
    },
    {
      "swissgolf_id": 177,
      "name": "Golf Mägenwil",
      "logo": "logo_blau_transparent-so_schoen.jpg",
      "lat": 47.41630742667523,
      "lon": 8.22901061157928,
      "category": "driving-range",
      "website": "https://golfmaegenwil.site",
      "holes": null,
      "postcode": null,
      "city": null
    },
    {
      "swissgolf_id": 178,
      "name": "Golf Park Thalwil",
      "logo": null,
      "lat": 47.2907885767999,
      "lon": 8.550517196230228,
      "category": "driving-range",
      "website": "https://www.golfparkthalwil.ch",
      "holes": null,
      "postcode": null,
      "city": null
    },
    {
      "swissgolf_id": 179,
      "name": "Golf-Fit",
      "logo": "logo_golffit.png",
      "lat": 46.49174046825771,
      "lon": 6.764807557637844,
      "category": "indoor",
      "website": "https://www.golf-fit.com",
      "holes": null,
      "postcode": null,
      "city": null
    },
    {
      "swissgolf_id": 96,
      "name": "Goms",
      "logo": "logo_source_du_rohne.jpg",
      "lat": 46.5151448,
      "lon": 8.3296367,
      "category": "primary",
      "website": "https://golf-source-du-rhone.ch",
      "holes": null,
      "postcode": null,
      "city": null
    },
    {
      "swissgolf_id": 69,
      "name": "Gruyère",
      "logo": "logo_gruyere.png",
      "lat": 46.698813,
      "lon": 7.1062329,
      "category": "secondary",
      "website": null,
      "holes": null,
      "postcode": null,
      "city": null
    },
    {
      "swissgolf_id": 17,
      "name": "Gstaad-Saanenland",
      "logo": null,
      "lat": 46.5108823,
      "lon": 7.3212947,
      "category": "secondary",
      "website": "https://www.golfclubgstaad.ch/",
      "holes": null,
      "postcode": null,
      "city": null
    },
    {
      "swissgolf_id": 18,
      "name": "Heidental",
      "logo": null,
      "lat": 47.382849,
      "lon": 7.967562,
      "category": "secondary",
      "website": "https://www.golfheidental.ch/",
      "holes": null,
      "postcode": null,
      "city": null
    },
    {
      "swissgolf_id": 70,
      "name": "Heidiland",
      "logo": null,
      "lat": 46.9991974,
      "lon": 9.5145016,
      "category": "primary",
      "website": "https://www.gcheidiland.ch/",
      "holes": 9,
      "postcode": "7310",
      "city": "Bad Ragaz"
    },
    {
      "swissgolf_id": 19,
      "name": "Hittnau",
      "logo": null,
      "lat": 47.3602084,
      "lon": 8.8436211,
      "category": "secondary",
      "website": "http://www.gcch.ch/",
      "holes": null,
      "postcode": null,
      "city": null
    },
    {
      "swissgolf_id": 180,
      "name": "Indoor Golf Performance",
      "logo": "indoorgolf_logo.jpg",
      "lat": 46.83267275389633,
      "lon": 6.943057063119299,
      "category": "indoor",
      "website": "https://indoorgolfperformance.ch",
      "holes": null,
      "postcode": null,
      "city": null
    },
    {
      "swissgolf_id": 20,
      "name": "Interlaken-Unterseen",
      "logo": null,
      "lat": 46.6780414,
      "lon": 7.8191933,
      "category": "secondary",
      "website": "https://www.interlakengolf.ch/",
      "holes": null,
      "postcode": null,
      "city": null
    },
    {
      "swissgolf_id": 21,
      "name": "Klosters",
      "logo": null,
      "lat": 46.8585437,
      "lon": 9.8844886,
      "category": "primary",
      "website": "https://golf-klosters.ch/",
      "holes": null,
      "postcode": null,
      "city": null
    },
    {
      "swissgolf_id": 71,
      "name": "Küssnacht",
      "logo": "golfclubkuessnacht_logo.png",
      "lat": 47.0889534,
      "lon": 8.4297406,
      "category": "secondary",
      "website": "https://www.gck.swiss",
      "holes": null,
      "postcode": null,
      "city": null
    },
    {
      "swissgolf_id": 22,
      "name": "Kyburg",
      "logo": null,
      "lat": 47.4626982,
      "lon": 8.7139999,
      "category": "secondary",
      "website": "https://www.golf-kyburg.ch/",
      "holes": null,
      "postcode": null,
      "city": null
    },
    {
      "swissgolf_id": 23,
      "name": "La Côte / Golfpark Signal de Bougy",
      "logo": null,
      "lat": 46.4843555,
      "lon": 6.3492001,
      "category": "secondary",
      "website": "https://www.golfclublacote.ch/",
      "holes": 18,
      "postcode": "1172",
      "city": "Bougy-Villars"
    },
    {
      "swissgolf_id": 72,
      "name": "Lägern / Golfpark Otelfingen",
      "logo": null,
      "lat": 47.477374,
      "lon": 8.3871215,
      "category": "secondary",
      "website": "https://gc-laegern.ch/",
      "holes": null,
      "postcode": null,
      "city": null
    },
    {
      "swissgolf_id": 24,
      "name": "LaLargue",
      "logo": null,
      "lat": 47.5161736,
      "lon": 7.2045698,
      "category": "secondary",
      "website": "https://golflalargue.com/",
      "holes": null,
      "postcode": null,
      "city": null
    },
    {
      "swissgolf_id": 73,
      "name": "Laufental",
      "logo": "logo_laufental.jpg",
      "lat": 47.4386244,
      "lon": 7.5394555,
      "category": "primary",
      "website": "https://www.birs-golf.ch/",
      "holes": null,
      "postcode": null,
      "city": null
    },
    {
      "swissgolf_id": 25,
      "name": "Lausanne",
      "logo": null,
      "lat": 46.566003,
      "lon": 6.6755442,
      "category": "secondary",
      "website": "https://golflausanne.ch/",
      "holes": null,
      "postcode": null,
      "city": null
    },
    {
      "swissgolf_id": 74,
      "name": "Lavaux",
      "logo": "logo_lavaux.jpg",
      "lat": 46.5069047,
      "lon": 6.7735653,
      "category": "secondary",
      "website": "http://golflavaux.ch/",
      "holes": null,
      "postcode": null,
      "city": null
    },
    {
      "swissgolf_id": 75,
      "name": "Lenzerheide",
      "logo": "logo_lenzerheide.png",
      "lat": 46.7098003,
      "lon": 9.5549189,
      "category": "secondary",
      "website": "https://golflenzerheide.ch/",
      "holes": null,
      "postcode": null,
      "city": null
    },
    {
      "swissgolf_id": 76,
      "name": "Les Bois",
      "logo": "logo_lesbois.jpg",
      "lat": 47.1677406,
      "lon": 6.9007353,
      "category": "secondary",
      "website": "http://www.golflesbois.ch/",
      "holes": null,
      "postcode": null,
      "city": null
    },
    {
      "swissgolf_id": 77,
      "name": "Les Coullaux",
      "logo": null,
      "lat": 46.3530761,
      "lon": 6.8827944,
      "category": "primary",
      "website": "https://www.golflescoullaux.ch/",
      "holes": 9,
      "postcode": "1846",
      "city": "Chessel"
    },
    {
      "swissgolf_id": 78,
      "name": "Leuk",
      "logo": null,
      "lat": 46.3044594,
      "lon": 7.6587186,
      "category": "secondary",
      "website": "https://golfleuk.ch/home/",
      "holes": null,
      "postcode": null,
      "city": null
    },
    {
      "swissgolf_id": 79,
      "name": "Limpachtal",
      "logo": "logo_limpachtal.jpg",
      "lat": 47.131594,
      "lon": 7.5054899,
      "category": "secondary",
      "website": "http://www.golf-limpachtal.ch/",
      "holes": null,
      "postcode": null,
      "city": null
    },
    {
      "swissgolf_id": 26,
      "name": "Lipperswil",
      "logo": null,
      "lat": 47.6154749,
      "lon": 9.0517062,
      "category": "secondary",
      "website": "https://golfswitzerland.ch/",
      "holes": null,
      "postcode": null,
      "city": null
    },
    {
      "swissgolf_id": 27,
      "name": "Lucerne",
      "logo": null,
      "lat": 47.064988,
      "lon": 8.3389749,
      "category": "secondary",
      "website": "http://www.golfclubluzern.ch/",
      "holes": null,
      "postcode": null,
      "city": null
    },
    {
      "swissgolf_id": 81,
      "name": "Lugano",
      "logo": null,
      "lat": 45.9818865,
      "lon": 8.8787083,
      "category": "secondary",
      "website": "https://www.golflugano.ch/",
      "holes": null,
      "postcode": null,
      "city": null
    },
    {
      "swissgolf_id": 82,
      "name": "Maison Blanche",
      "logo": "logo_maison_blanche.png",
      "lat": 46.2977467,
      "lon": 6.0322053,
      "category": "secondary",
      "website": "https://www.golfmaisonblanche.fr/",
      "holes": null,
      "postcode": null,
      "city": null
    },
    {
      "swissgolf_id": 83,
      "name": "Markgräflerland",
      "logo": "logo_markgraeferland_22.jpg",
      "lat": 47.7160913,
      "lon": 7.6495213,
      "category": "secondary",
      "website": "http://www.gc-mk.com/",
      "holes": null,
      "postcode": null,
      "city": null
    },
    {
      "swissgolf_id": 84,
      "name": "Matterhorn",
      "logo": "logo_matterhorn.jpg",
      "lat": 46.0875037,
      "lon": 7.776978,
      "category": "primary",
      "website": "http://www.golfclubmatterhorn.ch/",
      "holes": null,
      "postcode": null,
      "city": null
    },
    {
      "swissgolf_id": 85,
      "name": "Meggen",
      "logo": null,
      "lat": 47.0491629,
      "lon": 8.3544893,
      "category": "primary",
      "website": "https://www.golfmeggen.ch/",
      "holes": null,
      "postcode": null,
      "city": null
    },
    {
      "swissgolf_id": 86,
      "name": "Montreux",
      "logo": "logo_montreux.jpg",
      "lat": 46.3153977,
      "lon": 6.9458823,
      "category": "secondary",
      "website": "http://www.golfmontreux.ch/",
      "holes": null,
      "postcode": null,
      "city": null
    },
    {
      "swissgolf_id": 87,
      "name": "Neuchâtel",
      "logo": "logo_neuchatel.jpg",
      "lat": 47.0070267,
      "lon": 6.9486873,
      "category": "secondary",
      "website": "https://www.golfdeneuchatel.ch/",
      "holes": 18,
      "postcode": "2072",
      "city": "Saint-Blaise"
    },
    {
      "swissgolf_id": 28,
      "name": "Niederbüren",
      "logo": null,
      "lat": 47.4700493,
      "lon": 9.1959699,
      "category": "secondary",
      "website": "https://www.osgc.ch/",
      "holes": null,
      "postcode": null,
      "city": null
    },
    {
      "swissgolf_id": 88,
      "name": "Obere Alp",
      "logo": null,
      "lat": 47.7662436,
      "lon": 8.3705013,
      "category": "secondary",
      "website": "http://www.golf-oberealp.de/",
      "holes": null,
      "postcode": null,
      "city": null
    },
    {
      "swissgolf_id": 89,
      "name": "Oberkirch / Golfpark Oberkirch",
      "logo": null,
      "lat": 47.1572258,
      "lon": 8.1042002,
      "category": "secondary",
      "website": "https://golfclub-oberkirch.ch/",
      "holes": null,
      "postcode": null,
      "city": null
    },
    {
      "swissgolf_id": 5,
      "name": "Patriziale Ascona",
      "logo": "logo_ascona.png",
      "lat": 46.148093,
      "lon": 8.7799863,
      "category": "secondary",
      "website": "https://golfascona.ch",
      "holes": null,
      "postcode": null,
      "city": null
    },
    {
      "swissgolf_id": 90,
      "name": "Payerne",
      "logo": null,
      "lat": 46.8128866,
      "lon": 6.935992,
      "category": "secondary",
      "website": "http://www.golfpayerne.ch/",
      "holes": null,
      "postcode": null,
      "city": null
    },
    {
      "swissgolf_id": 183,
      "name": "Pitch&Putt Bad Schinznach",
      "logo": "logo_bad_schinznach.png",
      "lat": 47.45626877542697,
      "lon": 8.166508310899207,
      "category": "pitch-putt",
      "website": "https://bad-schinznach.ch/de/pitch-putt-golfplatz/",
      "holes": null,
      "postcode": null,
      "city": null
    },
    {
      "swissgolf_id": 182,
      "name": "Practice Golf Club de Bassecourt",
      "logo": null,
      "lat": 47.32864879742728,
      "lon": 7.241957869244534,
      "category": "driving-range",
      "website": "https://practice-bassecourt.ch",
      "holes": null,
      "postcode": null,
      "city": null
    },
    {
      "swissgolf_id": 91,
      "name": "Rastenmoos",
      "logo": null,
      "lat": 47.1044663,
      "lon": 8.2273091,
      "category": "primary",
      "website": "https://www.fairplaygolf-schweiz.ch",
      "holes": null,
      "postcode": null,
      "city": null
    },
    {
      "swissgolf_id": 92,
      "name": "Rheinblick",
      "logo": null,
      "lat": 47.6065266,
      "lon": 8.5792726,
      "category": "secondary",
      "website": "https://www.golfclubrheinblick.ch/",
      "holes": 18,
      "postcode": null,
      "city": null
    },
    {
      "swissgolf_id": 29,
      "name": "Rheinfelden",
      "logo": null,
      "lat": 47.54472,
      "lon": 7.776104,
      "category": "primary",
      "website": "http://www.golfzentrum.ch/de/Home/",
      "holes": 9,
      "postcode": "4310",
      "city": "Rheinfelden"
    },
    {
      "swissgolf_id": 30,
      "name": "Riederalp",
      "logo": "logo_riederalp.jpg",
      "lat": 46.378063,
      "lon": 8.033188,
      "category": "primary",
      "website": "https://www.golfclub-riederalp.ch/sites/de/",
      "holes": null,
      "postcode": null,
      "city": null
    },
    {
      "swissgolf_id": 32,
      "name": "Saint Apollinaire",
      "logo": null,
      "lat": 47.552846,
      "lon": 7.438122,
      "category": "secondary",
      "website": "https://www.golf-basel.com/",
      "holes": null,
      "postcode": null,
      "city": null
    },
    {
      "swissgolf_id": 33,
      "name": "Schinznach Bad",
      "logo": "logo_schinznach.jpg",
      "lat": 47.4570971,
      "lon": 8.1646504,
      "category": "primary",
      "website": "https://golf-schinznach.ch/",
      "holes": 9,
      "postcode": "5116",
      "city": "Schinznach Bad"
    },
    {
      "swissgolf_id": 68,
      "name": "Schloss Goldenberg",
      "logo": "logo_schloss-goldenberg.jpg",
      "lat": 47.5760836,
      "lon": 8.6528591,
      "category": "secondary",
      "website": "http://www.golfclubschlossgoldenberg.ch/",
      "holes": null,
      "postcode": null,
      "city": null
    },
    {
      "swissgolf_id": 93,
      "name": "Schönenberg",
      "logo": null,
      "lat": 47.205852,
      "lon": 8.624816,
      "category": "secondary",
      "website": "https://www.golf-schoenenberg.ch/",
      "holes": null,
      "postcode": null,
      "city": null
    },
    {
      "swissgolf_id": 94,
      "name": "Sedrun",
      "logo": null,
      "lat": 46.6574082,
      "lon": 8.7166,
      "category": "primary",
      "website": "https://www.golfclub-sedrun.ch/",
      "holes": null,
      "postcode": null,
      "city": null
    },
    {
      "swissgolf_id": 34,
      "name": "Sempach",
      "logo": null,
      "lat": 47.155833,
      "lon": 8.2137369,
      "category": "secondary",
      "website": "https://www.golf-sempachersee.ch/",
      "holes": null,
      "postcode": null,
      "city": null
    },
    {
      "swissgolf_id": 35,
      "name": "Sierre",
      "logo": null,
      "lat": 46.2659659,
      "lon": 7.4302142,
      "category": "secondary",
      "website": "https://www.golfsierre.ch/",
      "holes": 18,
      "postcode": "3977",
      "city": "Granges"
    },
    {
      "swissgolf_id": 95,
      "name": "Sion",
      "logo": "logo_sion.jpg",
      "lat": 46.2413926,
      "lon": 7.3775335,
      "category": "secondary",
      "website": "https://www.golfsion.ch/",
      "holes": null,
      "postcode": null,
      "city": null
    },
    {
      "swissgolf_id": 36,
      "name": "Thunersee",
      "logo": "logo_thunersee.jpg",
      "lat": 46.746565,
      "lon": 7.596744,
      "category": "primary",
      "website": "http://www.golfthunersee.ch/",
      "holes": null,
      "postcode": null,
      "city": null
    },
    {
      "swissgolf_id": 98,
      "name": "Unterengstringen",
      "logo": null,
      "lat": 47.403881,
      "lon": 8.415996,
      "category": "primary",
      "website": "https://www.golfunterengstringen.ch/",
      "holes": null,
      "postcode": null,
      "city": null
    },
    {
      "swissgolf_id": 99,
      "name": "Verbier",
      "logo": null,
      "lat": 46.104729,
      "lon": 7.2320212,
      "category": "secondary",
      "website": "https://www.verbiergolfclub.ch",
      "holes": 18,
      "postcode": "1936",
      "city": "Verbier"
    },
    {
      "swissgolf_id": 100,
      "name": "Villars",
      "logo": "logo_villars.jpg",
      "lat": 46.310849,
      "lon": 7.0764066,
      "category": "secondary",
      "website": "http://www.golf-villars.ch/",
      "holes": null,
      "postcode": null,
      "city": null
    },
    {
      "swissgolf_id": 37,
      "name": "Vuissens",
      "logo": "logo_vuissens.jpg",
      "lat": 46.7451297,
      "lon": 6.7588209,
      "category": "secondary",
      "website": "http://www.golfvuissens.ch/",
      "holes": null,
      "postcode": null,
      "city": null
    },
    {
      "swissgolf_id": 101,
      "name": "Vulpera",
      "logo": "logo_vulpera.jpg",
      "lat": 46.7871072,
      "lon": 10.278862,
      "category": "primary",
      "website": "https://www.vulperagolf.ch/",
      "holes": null,
      "postcode": null,
      "city": null
    },
    {
      "swissgolf_id": 38,
      "name": "Waldkirch / Golfpark Waldkirch",
      "logo": "logo_waldkirch.jpg",
      "lat": 47.4642396,
      "lon": 9.2499369,
      "category": "secondary",
      "website": "https://www.gcwaldkirch.ch/",
      "holes": null,
      "postcode": null,
      "city": null
    },
    {
      "swissgolf_id": 102,
      "name": "Wallenried",
      "logo": "logo_wallenried.jpg",
      "lat": 46.870487,
      "lon": 7.1088754,
      "category": "secondary",
      "website": "http://www.golf-wallenried.ch/",
      "holes": null,
      "postcode": null,
      "city": null
    },
    {
      "swissgolf_id": 103,
      "name": "Weid Hauenstein",
      "logo": "logo_weid_hauenstein.jpeg",
      "lat": 47.38019,
      "lon": 7.871677,
      "category": "primary",
      "website": "https://www.golf-hauenstein.ch/",
      "holes": null,
      "postcode": null,
      "city": null
    },
    {
      "swissgolf_id": 39,
      "name": "Winterberg",
      "logo": null,
      "lat": 47.4564274,
      "lon": 8.6788364,
      "category": "primary",
      "website": "https://www.golf-winterberg.ch/home/index.html?home=1#section1",
      "holes": null,
      "postcode": null,
      "city": null
    },
    {
      "swissgolf_id": 40,
      "name": "Wylihof",
      "logo": null,
      "lat": 47.225489,
      "lon": 7.590392,
      "category": "secondary",
      "website": "https://www.golfclub.ch/",
      "holes": null,
      "postcode": null,
      "city": null
    },
    {
      "swissgolf_id": 41,
      "name": "Ybrig",
      "logo": null,
      "lat": 47.0609701,
      "lon": 8.8555803,
      "category": "secondary",
      "website": "https://www.golfybrig.ch/",
      "holes": 18,
      "postcode": "8845",
      "city": "Studen"
    },
    {
      "swissgolf_id": 42,
      "name": "Zumikon",
      "logo": null,
      "lat": 47.335318,
      "lon": 8.6260702,
      "category": "secondary",
      "website": "https://www.gccz.ch/",
      "holes": null,
      "postcode": null,
      "city": null
    },
    {
      "swissgolf_id": 104,
      "name": "Zürichsee",
      "logo": "logo_zuerichsee.png",
      "lat": 47.1980592,
      "lon": 8.8953113,
      "category": "secondary",
      "website": "https://www.golfpark.ch/de/",
      "holes": null,
      "postcode": null,
      "city": null
    }
  ]
}